
$GPGGA,235950.799,,,,,0,0,,,M,,M,,*47
$GPRMC,235950.799,V,,,,,0.00,0.00,050180,,,N*4E
$GPGGA,235951.800,,,,,0,0,,,M,,M,,*49
$GPRMC,235951.800,V,,,,,0.00,0.00,050180,,,N*40
$GPGGA,235952.800,,,,,0,0,,,M,,M,,*4A
$GPRMC,235952.800,V,,,,,0.00,0.00,050180,,,N*43
$GPGGA,235953.800,,,,,0,0,,,M,,M,,*4B
$GPRMC,235953.800,V,,,,,0.00,0.00,050180,,,N*42
$GPGGA,235954.800,,,,,0,0,,,M,,M,,*4C
$GPRMC,235954.800,V,,,,,0.00,0.00,050180,,,N*45
$GPGGA,235955.800,,,,,0,0,,,M,,M,,*4D
$GPRMC,235955.800,V,,,,,0.00,0.00,050180,,,N*44
$GPGGA,235956.269,,,,,0,0,,,M,,M,,*4B
$GPRMC,235956.269,V,,,,,0.00,0.00,050180,,,N*42
$GPGGA,235957.269,,,,,0,0,,,M,,M,,*4A
$GPRMC,235957.269,V,,,,,0.00,0.00,050180,,,N*43
$GPGGA,061703.096,,,,,0,0,,,M,,M,,*44
$GPRMC,061703.096,V,,,,,0.00,0.00,110180,,,N*48
$GPGGA,061704.096,,,,,0,0,,,M,,M,,*43
$GPRMC,061704.096,V,,,,,0.00,0.00,110180,,,N*4F
$GPGGA,061705.096,,,,,0,0,,,M,,M,,*42
$GPRMC,061705.096,V,,,,,0.00,0.00,110180,,,N*4E
$GPGGA,061706.096,,,,,0,0,,,M,,M,,*41
$GPRMC,061706.096,V,,,,,0.00,0.00,110180,,,N*4D
$GPGGA,061707.096,,,,,0,0,,,M,,M,,*40
$GPRMC,061707.096,V,,,,,0.00,0.00,110180,,,N*4C
$GPGGA,061708.096,,,,,0,0,,,M,,M,,*4F
$GPRMC,061708.096,V,,,,,0.00,0.00,110180,,,N*43
$GPGGA,061709.096,,,,,0,0,,,M,,M,,*4E
$GPRMC,061709.096,V,,,,,0.00,0.00,110180,,,N*42
$GPGGA,061710.096,,,,,0,0,,,M,,M,,*46
$GPRMC,061710.096,V,,,,,0.00,0.00,110180,,,N*4A
$GPGGA,061711.096,,,,,0,0,,,M,,M,,*47
$GPRMC,061711.096,V,,,,,0.00,0.00,110180,,,N*4B
$GPGGA,061712.096,,,,,0,0,,,M,,M,,*44
$GPRMC,061712.096,V,,,,,0.00,0.00,110180,,,N*48
$GPGGA,061713.096,,,,,0,0,,,M,,M,,*45
$GPRMC,061713.096,V,,,,,0.00,0.00,110180,,,N*49
$GPGGA,061714.096,,,,,0,0,,,M,,M,,*42
$GPRMC,061714.096,V,,,,,0.00,0.00,110180,,,N*4E
$GPGGA,061715.096,,,,,0,0,,,M,,M,,*43
$GPRMC,061715.096,V,,,,,0.00,0.00,110180,,,N*4F
$GPGGA,061716.096,,,,,0,0,,,M,,M,,*40
$GPRMC,061716.096,V,,,,,0.00,0.00,110180,,,N*4C
$GPGGA,061717.096,,,,,0,0,,,M,,M,,*41
$GPRMC,061717.096,V,,,,,0.00,0.00,110180,,,N*4D
$GPGGA,061718.096,,,,,0,0,,,M,,M,,*4E
$GPRMC,061718.096,V,,,,,0.00,0.00,110180,,,N*42
$GPGGA,061719.096,,,,,0,0,,,M,,M,,*4F
$GPRMC,061719.096,V,,,,,0.00,0.00,110180,,,N*43
$GPGGA,061720.096,,,,,0,0,,,M,,M,,*45
$GPRMC,061720.096,V,,,,,0.00,0.00,110180,,,N*49
$GPGGA,061721.096,,,,,0,0,,,M,,M,,*44
$GPRMC,061721.096,V,,,,,0.00,0.00,110180,,,N*48
$GPGGA,061722.096,,,,,0,0,,,M,,M,,*47
$GPRMC,061722.096,V,,,,,0.00,0.00,110180,,,N*4B
$GPGGA,061723.096,,,,,0,0,,,M,,M,,*46
$GPRMC,061723.096,V,,,,,0.00,0.00,110180,,,N*4A
$GPGGA,061724.096,,,,,0,0,,,M,,M,,*41
$GPRMC,061724.096,V,,,,,0.00,0.00,110180,,,N*4D
$GPGGA,061725.096,,,,,0,0,,,M,,M,,*40
$GPRMC,061725.096,V,,,,,0.00,0.00,180915,,,N*41
$GPGGA,061726.096,,,,,0,0,,,M,,M,,*43
$GPRMC,061726.096,V,,,,,0.00,0.00,180915,,,N*42
$GPGGA,061727.096,,,,,0,0,,,M,,M,,*42
$GPRMC,061727.096,V,,,,,0.00,0.00,180915,,,N*43
$GPGGA,061728.096,,,,,0,0,,,M,,M,,*4D
$GPRMC,061728.096,V,,,,,0.00,0.00,180915,,,N*4C
$GPGGA,061729.096,,,,,0,0,,,M,,M,,*4C
$GPRMC,061729.096,V,,,,,0.00,0.00,180915,,,N*4D
$GPGGA,061730.096,,,,,0,0,,,M,,M,,*44
$GPRMC,061730.096,V,,,,,0.00,0.00,180915,,,N*45
$GPGGA,061731.095,,,,,0,3,,,M,,M,,*45
$GPRMC,061731.095,V,,,,,0.25,0.00,180915,,,N*40
$GPGGA,061732.095,,,,,0,3,,,M,,M,,*46
$GPRMC,061732.095,V,,,,,0.54,0.00,180915,,,N*45
$GPGGA,061734.000,,,,,0,3,,,M,,M,,*4C
$GPRMC,061734.000,V,,,,,0.68,295.73,180915,,,N*4A
$GPGGA,061735.000,,,,,0,3,,,M,,M,,*4D
$GPRMC,061735.000,V,,,,,0.97,300.35,180915,,,N*44
$GPGGA,061736.000,,,,,0,3,,,M,,M,,*4E
$GPRMC,061736.000,V,,,,,0.86,301.24,180915,,,N*46
$GPGGA,061737.000,,,,,0,3,,,M,,M,,*4F
$GPRMC,061737.000,V,,,,,0.63,286.26,180915,,,N*40
$GPGGA,061737.215,,,,,0,3,,,M,,M,,*49
$GPRMC,061737.215,V,,,,,0.60,284.14,180915,,,N*46
$GPGGA,061739.000,,,,,0,3,,,M,,M,,*41
$GPRMC,061739.000,V,,,,,0.56,284.14,180915,,,N*4B
$GPGGA,061740.000,,,,,0,3,,,M,,M,,*4F
$GPRMC,061740.000,V,,,,,0.93,311.42,180915,,,N*42
$GPGGA,061741.000,,,,,0,3,,,M,,M,,*4E
$GPRMC,061741.000,V,,,,,0.91,305.62,180915,,,N*46
$GPGGA,061742.000,,,,,0,3,,,M,,M,,*4D
$GPRMC,061742.000,V,,,,,0.73,302.51,180915,,,N*4E
$GPGGA,061743.000,,,,,0,3,,,M,,M,,*4C
$GPRMC,061743.000,V,,,,,0.56,302.51,180915,,,N*48
$GPGGA,061743.215,,,,,0,3,,,M,,M,,*4A
$GPRMC,061743.215,V,,,,,0.51,302.51,180915,,,N*49
$GPGGA,061745.000,,,,,0,3,,,M,,M,,*4A
$GPRMC,061745.000,V,,,,,0.47,302.51,180915,,,N*4E
$GPGGA,061746.000,,,,,0,3,,,M,,M,,*49
$GPRMC,061746.000,V,,,,,0.89,309.35,180915,,,N*46
$GPGGA,061747.000,,,,,0,3,,,M,,M,,*48
$GPRMC,061747.000,V,,,,,0.88,307.43,180915,,,N*49
$GPGGA,061748.000,,,,,0,3,,,M,,M,,*47
$GPRMC,061748.000,V,,,,,0.72,312.84,180915,,,N*4C
$GPGGA,061749.000,,,,,0,3,,,M,,M,,*46
$GPRMC,061749.000,V,,,,,0.68,312.27,180915,,,N*4F
$GPGGA,061749.214,,,,,0,3,,,M,,M,,*41
$GPRMC,061749.214,V,,,,,0.66,311.37,180915,,,N*44
$GPGGA,061751.000,,,,,0,3,,,M,,M,,*4F
$GPRMC,061751.000,V,,,,,0.64,305.40,180915,,,N*4D
$GPGGA,061752.000,,,,,0,3,,,M,,M,,*4C
$GPRMC,061752.000,V,,,,,0.83,305.49,180915,,,N*4E
$GPGGA,061753.000,,,,,0,3,,,M,,M,,*4D
$GPRMC,061753.000,V,,,,,0.81,316.69,180915,,,N*4D
$GPGGA,061754.000,,,,,0,3,,,M,,M,,*4A
$GPRMC,061754.000,V,,,,,0.78,328.24,180915,,,N*48
$GPGGA,061755.000,,,,,0,3,,,M,,M,,*4B
$GPRMC,061755.000,V,,,,,0.75,329.15,180915,,,N*47
$GPGGA,061755.206,,,,,0,3,,,M,,M,,*4F
$GPRMC,061755.206,V,,,,,0.78,329.26,180915,,,N*4E
$GPGGA,061757.000,,,,,0,3,,,M,,M,,*49
$GPRMC,061757.000,V,,,,,0.68,318.78,180915,,,N*40
$GPGGA,061758.000,,,,,0,3,,,M,,M,,*46
$GPRMC,061758.000,V,,,,,0.90,314.03,180915,,,N*48
$GPGGA,061759.000,,,,,0,3,,,M,,M,,*47
$GPRMC,061759.000,V,,,,,0.98,319.78,180915,,,N*40
$GPGGA,061800.000,,,,,0,3,,,M,,M,,*44
$GPRMC,061800.000,V,,,,,0.89,324.02,180915,,,N*40
$GPGGA,061801.000,,,,,0,3,,,M,,M,,*45
$GPRMC,061801.000,V,,,,,0.99,329.97,180915,,,N*41
$GPGGA,061801.206,2602.2238,S,02801.1861,E,1,5,2.20,127.5,M,22.5,M,,*42
$GPRMC,061801.206,A,2602.2238,S,02801.1861,E,1.00,331.01,180915,,,A*74
$GPGGA,061803.000,,,,,0,5,,,M,,M,,*41
$GPRMC,061803.000,V,,,,,7.21,328.37,180915,,,N*4C
$GPGGA,061804.000,2602.2254,S,02801.1773,E,1,5,2.19,141.7,M,22.5,M,,*4D
$GPRMC,061804.000,A,2602.2254,S,02801.1773,E,5.93,325.99,180915,,,A*79
$GPGGA,061805.000,,,,,0,5,,,M,,M,,*47
$GPRMC,061805.000,V,,,,,0.80,324.88,180915,,,N*4E
$GPGGA,061806.000,,,,,0,5,,,M,,M,,*44
$GPRMC,061806.000,V,,,,,0.55,322.86,180915,,,N*4D
$GPGGA,061807.000,2602.1148,S,02801.1454,E,1,5,2.19,1432.0,M,22.5,M,,*72
$GPRMC,061807.000,A,2602.1148,S,02801.1454,E,0.35,322.86,180915,,,A*71
$GPGGA,061808.000,2602.1100,S,02801.1441,E,1,5,2.19,1458.2,M,22.5,M,,*7B
$GPRMC,061808.000,A,2602.1100,S,02801.1441,E,0.32,322.86,180915,,,A*71
$GPGGA,061809.000,2602.1092,S,02801.1448,E,1,5,2.21,1471.0,M,22.5,M,,*7B
$GPRMC,061809.000,A,2602.1092,S,02801.1448,E,0.26,322.86,180915,,,A*76
$GPGGA,061810.000,2602.1088,S,02801.1450,E,1,5,2.21,1476.7,M,22.5,M,,*71
$GPRMC,061810.000,A,2602.1088,S,02801.1450,E,0.09,322.86,180915,,,A*71
$GPGGA,061811.000,2602.1086,S,02801.1458,E,1,5,2.19,1484.1,M,22.5,M,,*76
$GPRMC,061811.000,A,2602.1086,S,02801.1458,E,0.14,322.86,180915,,,A*7A
$GPGGA,061812.000,2602.1081,S,02801.1464,E,1,5,2.19,1489.1,M,22.5,M,,*70
$GPRMC,061812.000,A,2602.1081,S,02801.1464,E,0.11,322.86,180915,,,A*74
$GPGGA,061813.000,2602.1079,S,02801.1468,E,1,5,2.19,1493.0,M,22.5,M,,*70
$GPRMC,061813.000,A,2602.1079,S,02801.1468,E,0.09,322.86,180915,,,A*77
$GPGGA,061814.000,2602.1078,S,02801.1470,E,1,5,2.19,1495.4,M,22.5,M,,*7D
$GPRMC,061814.000,A,2602.1078,S,02801.1470,E,0.14,322.86,180915,,,A*74
$GPGGA,061815.000,2602.1077,S,02801.1473,E,1,5,2.19,1498.6,M,22.5,M,,*7F
$GPRMC,061815.000,A,2602.1077,S,02801.1473,E,0.20,322.86,180915,,,A*7E
$GPGGA,061816.000,2602.1075,S,02801.1475,E,1,5,2.19,1500.4,M,22.5,M,,*7A
$GPRMC,061816.000,A,2602.1075,S,02801.1475,E,0.19,322.86,180915,,,A*73
$GPGGA,061817.000,2602.1075,S,02801.1478,E,1,5,2.19,1501.8,M,22.5,M,,*7B
$GPRMC,061817.000,A,2602.1075,S,02801.1478,E,0.19,322.86,180915,,,A*7F
$GPGGA,061818.000,2602.1074,S,02801.1479,E,1,5,2.19,1502.5,M,22.5,M,,*7A
$GPRMC,061818.000,A,2602.1074,S,02801.1479,E,0.17,322.86,180915,,,A*7E
$GPGGA,061819.000,2602.1074,S,02801.1481,E,1,5,2.19,1503.4,M,22.5,M,,*7C
$GPRMC,061819.000,A,2602.1074,S,02801.1481,E,0.14,322.86,180915,,,A*7B
$GPGGA,061820.000,2602.1073,S,02801.1484,E,1,5,2.19,1504.2,M,22.5,M,,*75
$GPRMC,061820.000,A,2602.1073,S,02801.1484,E,0.14,322.86,180915,,,A*73
$GPGGA,061821.000,2602.1074,S,02801.1486,E,1,5,2.19,1504.7,M,22.5,M,,*74
$GPRMC,061821.000,A,2602.1074,S,02801.1486,E,0.14,322.86,180915,,,A*77
$GPGGA,061822.000,2602.1073,S,02801.1487,E,1,5,2.19,1505.1,M,22.5,M,,*76
$GPRMC,061822.000,A,2602.1073,S,02801.1487,E,0.15,322.86,180915,,,A*73
$GPGGA,061823.000,2602.1072,S,02801.1487,E,1,5,2.19,1505.5,M,22.5,M,,*72
$GPRMC,061823.000,A,2602.1072,S,02801.1487,E,0.12,322.86,180915,,,A*74
$GPGGA,061824.000,2602.1072,S,02801.1488,E,1,5,2.18,1506.1,M,22.5,M,,*7C
$GPRMC,061824.000,A,2602.1072,S,02801.1488,E,0.09,322.86,180915,,,A*76
$GPGGA,061825.000,2602.1071,S,02801.1488,E,1,5,2.18,1506.4,M,22.5,M,,*7B
$GPRMC,061825.000,A,2602.1071,S,02801.1488,E,0.07,322.86,180915,,,A*7A
$GPGGA,061826.000,2602.1070,S,02801.1488,E,1,5,2.18,1506.4,M,22.5,M,,*79
$GPRMC,061826.000,A,2602.1070,S,02801.1488,E,0.10,322.86,180915,,,A*7E
$GPGGA,061827.000,2602.1070,S,02801.1488,E,1,5,2.20,1506.4,M,22.5,M,,*73
$GPRMC,061827.000,A,2602.1070,S,02801.1488,E,0.15,322.86,180915,,,A*7A
$GPGGA,061828.000,2602.1070,S,02801.1488,E,1,5,2.20,1506.4,M,22.5,M,,*7C
$GPRMC,061828.000,A,2602.1070,S,02801.1488,E,0.30,322.86,180915,,,A*72
$GPGGA,061829.000,2602.1069,S,02801.1489,E,1,5,2.18,1506.4,M,22.5,M,,*7F
$GPRMC,061829.000,A,2602.1069,S,02801.1489,E,0.30,322.86,180915,,,A*7A
$GPGGA,061830.000,2602.1068,S,02801.1489,E,1,5,2.19,1506.4,M,22.5,M,,*77
$GPRMC,061830.000,A,2602.1068,S,02801.1489,E,0.52,322.86,180915,,,A*77
$GPGGA,061831.000,2602.1067,S,02801.1489,E,1,5,2.20,1506.4,M,22.5,M,,*73
$GPRMC,061831.000,A,2602.1067,S,02801.1489,E,0.56,322.86,180915,,,A*7D
$GPGGA,061832.000,2602.1065,S,02801.1488,E,1,6,1.12,1506.4,M,22.5,M,,*72
$GPRMC,061832.000,A,2602.1065,S,02801.1488,E,0.43,322.86,180915,,,A*79
$GPGGA,061833.000,2602.1064,S,02801.1488,E,1,6,1.24,1506.4,M,22.5,M,,*77
$GPRMC,061833.000,A,2602.1064,S,02801.1488,E,0.29,322.86,180915,,,A*75
$GPGGA,061834.000,2602.1063,S,02801.1488,E,1,6,1.24,1506.5,M,22.5,M,,*76
$GPRMC,061834.000,A,2602.1063,S,02801.1488,E,0.21,322.86,180915,,,A*7D
$GPGGA,061835.000,2602.1063,S,02801.1487,E,1,6,1.12,1506.5,M,22.5,M,,*7D
$GPRMC,061835.000,A,2602.1063,S,02801.1487,E,0.29,322.86,180915,,,A*7B
$GPGGA,061836.000,2602.1062,S,02801.1487,E,1,6,1.12,1506.5,M,22.5,M,,*7F
$GPRMC,061836.000,A,2602.1062,S,02801.1487,E,0.25,322.86,180915,,,A*75
$GPGGA,061837.000,2602.1062,S,02801.1486,E,1,6,1.12,1506.5,M,22.5,M,,*7F
$GPRMC,061837.000,A,2602.1062,S,02801.1486,E,0.15,322.86,180915,,,A*76
$GPGGA,061838.000,2602.1061,S,02801.1486,E,1,6,1.12,1506.5,M,22.5,M,,*73
$GPRMC,061838.000,A,2602.1061,S,02801.1486,E,0.19,322.86,180915,,,A*76
$GPGGA,061839.000,2602.1061,S,02801.1485,E,1,6,1.12,1506.5,M,22.5,M,,*71
$GPRMC,061839.000,A,2602.1061,S,02801.1485,E,0.07,322.86,180915,,,A*7B
$GPGGA,061840.000,2602.1061,S,02801.1485,E,1,6,1.12,1506.5,M,22.5,M,,*7F
$GPRMC,061840.000,A,2602.1061,S,02801.1485,E,0.04,322.86,180915,,,A*76
$GPGGA,061841.000,2602.1061,S,02801.1485,E,1,6,1.12,1506.5,M,22.5,M,,*7E
$GPRMC,061841.000,A,2602.1061,S,02801.1485,E,0.04,322.86,180915,,,A*77
$GPGGA,061842.000,2602.1061,S,02801.1485,E,1,6,1.12,1506.5,M,22.5,M,,*7D
$GPRMC,061842.000,A,2602.1061,S,02801.1485,E,0.09,322.86,180915,,,A*79
$GPGGA,061843.000,2602.1061,S,02801.1485,E,1,6,1.12,1506.5,M,22.5,M,,*7C
$GPRMC,061843.000,A,2602.1061,S,02801.1485,E,0.11,322.86,180915,,,A*71
$GPGGA,061844.000,2602.1061,S,02801.1485,E,1,6,1.24,1506.5,M,22.5,M,,*7E
$GPRMC,061844.000,A,2602.1061,S,02801.1485,E,0.09,322.86,180915,,,A*7F
$GPGGA,061845.000,2602.1061,S,02801.1485,E,1,6,1.12,1506.5,M,22.5,M,,*7A
$GPRMC,061845.000,A,2602.1061,S,02801.1485,E,0.15,322.86,180915,,,A*73
$GPGGA,061846.000,2602.1060,S,02801.1485,E,1,6,1.12,1506.4,M,22.5,M,,*79
$GPRMC,061846.000,A,2602.1060,S,02801.1485,E,0.15,322.86,180915,,,A*71
$GPGGA,061847.000,2602.1060,S,02801.1485,E,1,6,1.12,1506.4,M,22.5,M,,*78
$GPRMC,061847.000,A,2602.1060,S,02801.1485,E,0.11,322.86,180915,,,A*74
$GPGGA,061848.000,2602.1060,S,02801.1486,E,1,6,1.12,1506.4,M,22.5,M,,*74
$GPRMC,061848.000,A,2602.1060,S,02801.1486,E,0.11,322.86,180915,,,A*78
$GPGGA,061849.000,2602.1060,S,02801.1486,E,1,6,1.12,1506.4,M,22.5,M,,*75
$GPRMC,061849.000,A,2602.1060,S,02801.1486,E,0.03,322.86,180915,,,A*7A
$GPGGA,061850.000,2602.1061,S,02801.1486,E,1,6,1.12,1506.4,M,22.5,M,,*7C
$GPRMC,061850.000,A,2602.1061,S,02801.1486,E,0.13,322.86,180915,,,A*72
$GPGGA,061851.000,2602.1061,S,02801.1486,E,1,6,1.12,1506.4,M,22.5,M,,*7D
$GPRMC,061851.000,A,2602.1061,S,02801.1486,E,0.18,322.86,180915,,,A*78
$GPGGA,061852.000,2602.1061,S,02801.1487,E,1,6,1.12,1506.4,M,22.5,M,,*7F
$GPRMC,061852.000,A,2602.1061,S,02801.1487,E,0.15,322.86,180915,,,A*77
$GPGGA,061853.000,2602.1061,S,02801.1487,E,1,6,1.12,1506.3,M,22.5,M,,*79
$GPRMC,061853.000,A,2602.1061,S,02801.1487,E,0.09,322.86,180915,,,A*7B
$GPGGA,061854.000,2602.1061,S,02801.1487,E,1,6,1.12,1506.3,M,22.5,M,,*7E
$GPRMC,061854.000,A,2602.1061,S,02801.1487,E,0.26,322.86,180915,,,A*71
$GPGGA,061855.000,2602.1060,S,02801.1486,E,1,6,1.12,1506.3,M,22.5,M,,*7F
$GPRMC,061855.000,A,2602.1060,S,02801.1486,E,0.29,322.86,180915,,,A*7F
$GPGGA,061856.000,2602.1060,S,02801.1485,E,1,6,1.12,1506.3,M,22.5,M,,*7F
$GPRMC,061856.000,A,2602.1060,S,02801.1485,E,0.20,322.86,180915,,,A*76
$GPGGA,061857.000,2602.1060,S,02801.1485,E,1,6,1.12,1506.3,M,22.5,M,,*7E
$GPRMC,061857.000,A,2602.1060,S,02801.1485,E,0.13,322.86,180915,,,A*77
$GPGGA,061858.000,2602.1060,S,02801.1485,E,1,6,1.12,1506.3,M,22.5,M,,*71
$GPRMC,061858.000,A,2602.1060,S,02801.1485,E,0.08,322.86,180915,,,A*72
$GPGGA,061859.000,2602.1060,S,02801.1484,E,1,6,1.12,1506.3,M,22.5,M,,*71
$GPRMC,061859.000,A,2602.1060,S,02801.1484,E,0.01,322.86,180915,,,A*7B
$GPGGA,061900.000,2602.1060,S,02801.1484,E,1,6,1.12,1506.2,M,22.5,M,,*7D
$GPRMC,061900.000,A,2602.1060,S,02801.1484,E,0.21,322.86,180915,,,A*74
$GPGGA,061901.000,2602.1060,S,02801.1484,E,1,6,1.12,1506.2,M,22.5,M,,*7C
$GPRMC,061901.000,A,2602.1060,S,02801.1484,E,0.23,322.86,180915,,,A*77
$GPGGA,061902.000,2602.1059,S,02801.1484,E,1,6,1.24,1506.2,M,22.5,M,,*70
$GPRMC,061902.000,A,2602.1059,S,02801.1484,E,0.22,322.86,180915,,,A*7F
$GPGGA,061903.000,2602.1058,S,02801.1484,E,1,6,1.12,1506.2,M,22.5,M,,*75
$GPRMC,061903.000,A,2602.1058,S,02801.1484,E,0.17,322.86,180915,,,A*79
$GPGGA,061904.000,2602.1058,S,02801.1483,E,1,6,1.12,1506.2,M,22.5,M,,*75
$GPRMC,061904.000,A,2602.1058,S,02801.1483,E,0.14,322.86,180915,,,A*7A
$GPGGA,061905.000,2602.1058,S,02801.1483,E,1,6,1.12,1506.2,M,22.5,M,,*74
$GPRMC,061905.000,A,2602.1058,S,02801.1483,E,0.07,322.86,180915,,,A*79
$GPGGA,061906.000,2602.1058,S,02801.1483,E,1,6,1.12,1506.2,M,22.5,M,,*77
$GPRMC,061906.000,A,2602.1058,S,02801.1483,E,0.03,322.86,180915,,,A*7E
$GPGGA,061907.000,2602.1058,S,02801.1483,E,1,6,1.12,1506.2,M,22.5,M,,*76
$GPRMC,061907.000,A,2602.1058,S,02801.1483,E,0.07,322.86,180915,,,A*7B
$GPGGA,061908.000,2602.1058,S,02801.1483,E,1,6,1.12,1506.2,M,22.5,M,,*79
$GPRMC,061908.000,A,2602.1058,S,02801.1483,E,0.04,322.86,180915,,,A*77
$GPGGA,061909.000,2602.1058,S,02801.1483,E,1,6,1.12,1506.2,M,22.5,M,,*78
$GPRMC,061909.000,A,2602.1058,S,02801.1483,E,0.08,322.86,180915,,,A*7A
$GPGGA,061910.000,2602.1058,S,02801.1483,E,1,6,1.12,1506.2,M,22.5,M,,*70
$GPRMC,061910.000,A,2602.1058,S,02801.1483,E,0.22,322.86,180915,,,A*7A
$GPGGA,061911.000,2602.1057,S,02801.1482,E,1,6,1.12,1506.2,M,22.5,M,,*7F
$GPRMC,061911.000,A,2602.1057,S,02801.1482,E,0.32,322.86,180915,,,A*74
$GPGGA,061912.000,2602.1057,S,02801.1482,E,1,6,1.12,1506.2,M,22.5,M,,*7C
$GPRMC,061912.000,A,2602.1057,S,02801.1482,E,0.20,322.86,180915,,,A*74
$GPGGA,061913.000,2602.1056,S,02801.1481,E,1,6,1.12,1506.1,M,22.5,M,,*7C
$GPRMC,061913.000,A,2602.1056,S,02801.1481,E,0.07,322.86,180915,,,A*72
$GPGGA,061914.000,2602.1056,S,02801.1481,E,1,6,1.12,1506.1,M,22.5,M,,*7B
$GPRMC,061914.000,A,2602.1056,S,02801.1481,E,0.12,322.86,180915,,,A*71
$GPGGA,061915.000,2602.1057,S,02801.1481,E,1,6,1.12,1506.1,M,22.5,M,,*7B
$GPRMC,061915.000,A,2602.1057,S,02801.1481,E,0.31,322.86,180915,,,A*70
$GPGGA,061916.000,2602.1057,S,02801.1482,E,1,6,1.12,1506.1,M,22.5,M,,*7B
$GPRMC,061916.000,A,2602.1057,S,02801.1482,E,0.54,322.86,180915,,,A*73
$GPGGA,061917.000,2602.1058,S,02801.1483,E,1,6,1.12,1506.1,M,22.5,M,,*74
$GPRMC,061917.000,A,2602.1058,S,02801.1483,E,0.46,322.86,180915,,,A*7F
$GPGGA,061918.000,2602.1059,S,02801.1484,E,1,6,1.12,1506.1,M,22.5,M,,*7D
$GPRMC,061918.000,A,2602.1059,S,02801.1484,E,0.38,322.86,180915,,,A*7F
$GPGGA,061919.000,2602.1060,S,02801.1484,E,1,6,1.12,1506.1,M,22.5,M,,*76
$GPRMC,061919.000,A,2602.1060,S,02801.1484,E,0.13,322.86,180915,,,A*7D
$GPGGA,061920.000,2602.1060,S,02801.1484,E,1,6,1.12,1506.1,M,22.5,M,,*7C
$GPRMC,061920.000,A,2602.1060,S,02801.1484,E,0.07,322.86,180915,,,A*72
$GPGGA,061921.000,2602.1060,S,02801.1483,E,1,6,1.12,1506.1,M,22.5,M,,*7A
$GPRMC,061921.000,A,2602.1060,S,02801.1483,E,0.05,322.86,180915,,,A*76
$GPGGA,061922.000,2602.1060,S,02801.1483,E,1,6,1.12,1506.1,M,22.5,M,,*79
$GPRMC,061922.000,A,2602.1060,S,02801.1483,E,0.04,322.86,180915,,,A*74
$GPGGA,061923.000,2602.1060,S,02801.1483,E,1,6,1.12,1506.1,M,22.5,M,,*78
$GPRMC,061923.000,A,2602.1060,S,02801.1483,E,0.15,322.86,180915,,,A*75
$GPGGA,061924.000,2602.1060,S,02801.1483,E,1,6,1.24,1506.2,M,22.5,M,,*79
$GPRMC,061924.000,A,2602.1060,S,02801.1483,E,0.06,322.86,180915,,,A*70
$GPGGA,061925.000,2602.1059,S,02801.1484,E,1,6,1.12,1506.2,M,22.5,M,,*70
$GPRMC,061925.000,A,2602.1059,S,02801.1484,E,0.10,322.86,180915,,,A*7B
$GPGGA,061926.000,2602.1059,S,02801.1484,E,1,6,1.24,1506.2,M,22.5,M,,*76
$GPRMC,061926.000,A,2602.1059,S,02801.1484,E,0.12,322.86,180915,,,A*7A
$GPGGA,061927.000,2602.1059,S,02801.1483,E,1,6,1.24,1506.2,M,22.5,M,,*70
$GPRMC,061927.000,A,2602.1059,S,02801.1483,E,0.21,322.86,180915,,,A*7C
$GPGGA,061928.000,2602.1058,S,02801.1484,E,1,6,1.12,1506.2,M,22.5,M,,*7C
$GPRMC,061928.000,A,2602.1058,S,02801.1484,E,0.27,322.86,180915,,,A*73
$GPGGA,061929.000,2602.1057,S,02801.1484,E,1,6,1.24,1506.2,M,22.5,M,,*77
$GPRMC,061929.000,A,2602.1057,S,02801.1484,E,0.21,322.86,180915,,,A*7B
$GPGGA,061930.000,2602.1057,S,02801.1483,E,1,6,1.12,1506.2,M,22.5,M,,*7D
$GPRMC,061930.000,A,2602.1057,S,02801.1483,E,0.20,322.86,180915,,,A*75
$GPGGA,061931.000,2602.1056,S,02801.1483,E,1,6,1.24,1506.2,M,22.5,M,,*78
$GPRMC,061931.000,A,2602.1056,S,02801.1483,E,0.23,322.86,180915,,,A*76
$GPGGA,061932.000,2602.1056,S,02801.1483,E,1,6,1.24,1506.2,M,22.5,M,,*7B
$GPRMC,061932.000,A,2602.1056,S,02801.1483,E,0.18,322.86,180915,,,A*7D
$GPGGA,061933.000,2602.1055,S,02801.1483,E,1,6,1.12,1506.2,M,22.5,M,,*7C
$GPRMC,061933.000,A,2602.1055,S,02801.1483,E,0.14,322.86,180915,,,A*73
$GPGGA,061934.000,2602.1055,S,02801.1482,E,1,6,1.12,1506.2,M,22.5,M,,*7A
$GPRMC,061934.000,A,2602.1055,S,02801.1482,E,0.20,322.86,180915,,,A*72
$GPGGA,061935.000,2602.1055,S,02801.1482,E,1,6,1.12,1506.2,M,22.5,M,,*7B
$GPRMC,061935.000,A,2602.1055,S,02801.1482,E,0.23,322.86,180915,,,A*70
$GPGGA,061936.000,2602.1055,S,02801.1481,E,1,6,1.12,1506.2,M,22.5,M,,*7B
$GPRMC,061936.000,A,2602.1055,S,02801.1481,E,0.29,322.86,180915,,,A*7A
$GPGGA,061937.000,2602.1055,S,02801.1481,E,1,6,1.12,1506.2,M,22.5,M,,*7A
$GPRMC,061937.000,A,2602.1055,S,02801.1481,E,0.09,322.86,180915,,,A*79
$GPGGA,061938.000,2602.1055,S,02801.1480,E,1,6,1.24,1506.2,M,22.5,M,,*71
$GPRMC,061938.000,A,2602.1055,S,02801.1480,E,0.05,322.86,180915,,,A*7B
$GPGGA,061939.000,2602.1054,S,02801.1480,E,1,6,1.12,1506.2,M,22.5,M,,*74
$GPRMC,061939.000,A,2602.1054,S,02801.1480,E,0.13,322.86,180915,,,A*7C
$GPGGA,061940.000,2602.1054,S,02801.1480,E,1,6,1.12,1506.2,M,22.5,M,,*7A
$GPRMC,061940.000,A,2602.1054,S,02801.1480,E,0.16,322.86,180915,,,A*77
$GPGGA,061941.000,2602.1055,S,02801.1480,E,1,6,1.12,1506.2,M,22.5,M,,*7A
$GPRMC,061941.000,A,2602.1055,S,02801.1480,E,0.07,322.86,180915,,,A*77
$GPGGA,061942.000,2602.1055,S,02801.1479,E,1,6,1.12,1506.2,M,22.5,M,,*7F
$GPRMC,061942.000,A,2602.1055,S,02801.1479,E,0.09,322.86,180915,,,A*7C
$GPGGA,061943.000,2602.1055,S,02801.1479,E,1,6,1.12,1506.2,M,22.5,M,,*7E
$GPRMC,061943.000,A,2602.1055,S,02801.1479,E,0.14,322.86,180915,,,A*71
$GPGGA,061944.000,2602.1054,S,02801.1479,E,1,6,1.12,1506.2,M,22.5,M,,*78
$GPRMC,061944.000,A,2602.1054,S,02801.1479,E,0.17,322.86,180915,,,A*74
$GPGGA,061945.000,2602.1054,S,02801.1479,E,1,6,1.24,1506.3,M,22.5,M,,*7D
$GPRMC,061945.000,A,2602.1054,S,02801.1479,E,0.19,322.86,180915,,,A*7B
$GPGGA,061946.000,2602.1053,S,02801.1479,E,1,6,1.12,1506.3,M,22.5,M,,*7C
$GPRMC,061946.000,A,2602.1053,S,02801.1479,E,0.06,322.86,180915,,,A*71
$GPGGA,061947.000,2602.1053,S,02801.1479,E,1,6,1.12,1506.3,M,22.5,M,,*7D
$GPRMC,061947.000,A,2602.1053,S,02801.1479,E,0.04,322.86,180915,,,A*72
$GPGGA,061948.000,2602.1053,S,02801.1479,E,1,6,1.12,1506.3,M,22.5,M,,*72
$GPRMC,061948.000,A,2602.1053,S,02801.1479,E,0.17,322.86,180915,,,A*7F
$GPGGA,061949.000,2602.1054,S,02801.1479,E,1,6,1.12,1506.3,M,22.5,M,,*74
$GPRMC,061949.000,A,2602.1054,S,02801.1479,E,0.14,322.86,180915,,,A*7A
$GPGGA,061950.000,2602.1054,S,02801.1479,E,1,6,1.12,1506.3,M,22.5,M,,*7C
$GPRMC,061950.000,A,2602.1054,S,02801.1479,E,0.05,322.86,180915,,,A*72
$GPGGA,061951.000,2602.1054,S,02801.1479,E,1,6,1.12,1506.3,M,22.5,M,,*7D
$GPRMC,061951.000,A,2602.1054,S,02801.1479,E,0.07,322.86,180915,,,A*71
$GPGGA,061952.000,2602.1054,S,02801.1479,E,1,6,1.12,1506.3,M,22.5,M,,*7E
$GPRMC,061952.000,A,2602.1054,S,02801.1479,E,0.05,322.86,180915,,,A*70
$GPGGA,061953.000,2602.1054,S,02801.1479,E,1,6,1.12,1506.3,M,22.5,M,,*7F
$GPRMC,061953.000,A,2602.1054,S,02801.1479,E,0.06,322.86,180915,,,A*72
$GPGGA,061954.000,2602.1054,S,02801.1479,E,1,6,1.12,1506.3,M,22.5,M,,*78
$GPRMC,061954.000,A,2602.1054,S,02801.1479,E,0.13,322.86,180915,,,A*71
$GPGGA,061955.000,2602.1054,S,02801.1479,E,1,6,1.24,1506.3,M,22.5,M,,*7C
$GPRMC,061955.000,A,2602.1054,S,02801.1479,E,0.09,322.86,180915,,,A*7B
$GPGGA,061956.000,2602.1053,S,02801.1479,E,1,6,1.12,1506.3,M,22.5,M,,*7D
$GPRMC,061956.000,A,2602.1053,S,02801.1479,E,0.06,322.86,180915,,,A*70
$GPGGA,061957.000,2602.1054,S,02801.1479,E,1,6,1.12,1506.3,M,22.5,M,,*7B
$GPRMC,061957.000,A,2602.1054,S,02801.1479,E,0.10,322.86,180915,,,A*71
$GPGGA,061958.000,2602.1054,S,02801.1480,E,1,6,1.12,1506.3,M,22.5,M,,*72
$GPRMC,061958.000,A,2602.1054,S,02801.1480,E,0.07,322.86,180915,,,A*7E
$GPGGA,061959.000,2602.1054,S,02801.1480,E,1,6,1.12,1506.3,M,22.5,M,,*73
$GPRMC,061959.000,A,2602.1054,S,02801.1480,E,0.13,322.86,180915,,,A*7A
$GPGGA,062000.000,2602.1054,S,02801.1480,E,1,6,1.12,1506.3,M,22.5,M,,*75
$GPRMC,062000.000,A,2602.1054,S,02801.1480,E,0.10,322.86,180915,,,A*7F
$GPGGA,062001.000,2602.1055,S,02801.1480,E,1,6,1.12,1506.3,M,22.5,M,,*75
$GPRMC,062001.000,A,2602.1055,S,02801.1480,E,0.04,322.86,180915,,,A*7A
$GPGGA,062002.000,2602.1054,S,02801.1480,E,1,6,1.24,1506.3,M,22.5,M,,*72
$GPRMC,062002.000,A,2602.1054,S,02801.1480,E,0.05,322.86,180915,,,A*79
$GPGGA,062003.000,2602.1054,S,02801.1480,E,1,6,1.12,1506.3,M,22.5,M,,*76
$GPRMC,062003.000,A,2602.1054,S,02801.1480,E,0.01,322.86,180915,,,A*7C
$GPGGA,062004.000,2602.1054,S,02801.1480,E,1,6,1.12,1506.3,M,22.5,M,,*71
$GPRMC,062004.000,A,2602.1054,S,02801.1480,E,0.12,322.86,180915,,,A*79
$GPGGA,062005.000,2602.1055,S,02801.1480,E,1,6,1.12,1506.3,M,22.5,M,,*71
$GPRMC,062005.000,A,2602.1055,S,02801.1480,E,0.18,322.86,180915,,,A*73
$GPGGA,062006.000,2602.1055,S,02801.1480,E,1,6,1.12,1506.3,M,22.5,M,,*72
$GPRMC,062006.000,A,2602.1055,S,02801.1480,E,0.20,322.86,180915,,,A*7B
$GPGGA,062007.000,2602.1056,S,02801.1480,E,1,6,1.12,1506.3,M,22.5,M,,*70
$GPRMC,062007.000,A,2602.1056,S,02801.1480,E,0.10,322.86,180915,,,A*7A
$GPGGA,062008.000,2602.1056,S,02801.1480,E,1,6,1.12,1506.3,M,22.5,M,,*7F
$GPRMC,062008.000,A,2602.1056,S,02801.1480,E,0.08,322.86,180915,,,A*7C
$GPGGA,062009.000,2602.1056,S,02801.1480,E,1,6,1.12,1506.3,M,22.5,M,,*7E
$GPRMC,062009.000,A,2602.1056,S,02801.1480,E,0.09,322.86,180915,,,A*7C
$GPGGA,062010.000,2602.1057,S,02801.1480,E,1,6,1.12,1506.3,M,22.5,M,,*77
$GPRMC,062010.000,A,2602.1057,S,02801.1480,E,0.05,322.86,180915,,,A*79
$GPGGA,062011.000,2602.1056,S,02801.1481,E,1,6,1.12,1506.3,M,22.5,M,,*76
$GPRMC,062011.000,A,2602.1056,S,02801.1481,E,0.19,322.86,180915,,,A*75
$GPGGA,062012.000,2602.1057,S,02801.1480,E,1,6,1.12,1506.3,M,22.5,M,,*75
$GPRMC,062012.000,A,2602.1057,S,02801.1480,E,0.18,322.86,180915,,,A*77
$GPGGA,062013.000,2602.1057,S,02801.1479,E,1,6,1.12,1506.3,M,22.5,M,,*72
$GPRMC,062013.000,A,2602.1057,S,02801.1479,E,0.18,322.86,180915,,,A*70
$GPGGA,062014.000,2602.1057,S,02801.1479,E,1,6,1.12,1506.3,M,22.5,M,,*75
$GPRMC,062014.000,A,2602.1057,S,02801.1479,E,0.20,322.86,180915,,,A*7C
$GPGGA,062015.000,2602.1056,S,02801.1479,E,1,6,1.24,1506.3,M,22.5,M,,*70
$GPRMC,062015.000,A,2602.1056,S,02801.1479,E,0.21,322.86,180915,,,A*7D
$GPGGA,062016.000,2602.1056,S,02801.1478,E,1,6,1.12,1506.3,M,22.5,M,,*77
$GPRMC,062016.000,A,2602.1056,S,02801.1478,E,0.20,322.86,180915,,,A*7E
$GPGGA,062017.000,2602.1056,S,02801.1478,E,1,6,1.12,1506.3,M,22.5,M,,*76
$GPRMC,062017.000,A,2602.1056,S,02801.1478,E,0.18,322.86,180915,,,A*74
$GPGGA,062018.000,2602.1056,S,02801.1477,E,1,6,1.12,1506.3,M,22.5,M,,*76
$GPRMC,062018.000,A,2602.1056,S,02801.1477,E,0.20,322.86,180915,,,A*7F
$GPGGA,062019.000,2602.1056,S,02801.1477,E,1,6,1.12,1506.3,M,22.5,M,,*77
$GPRMC,062019.000,A,2602.1056,S,02801.1477,E,0.18,322.86,180915,,,A*75
$GPGGA,062020.000,2602.1057,S,02801.1476,E,1,6,1.12,1506.3,M,22.5,M,,*7D
$GPRMC,062020.000,A,2602.1057,S,02801.1476,E,0.08,322.86,180915,,,A*7E
$GPGGA,062021.000,2602.1057,S,02801.1476,E,1,6,1.12,1506.3,M,22.5,M,,*7C
$GPRMC,062021.000,A,2602.1057,S,02801.1476,E,0.16,322.86,180915,,,A*70
$GPGGA,062022.000,2602.1057,S,02801.1476,E,1,6,1.12,1506.3,M,22.5,M,,*7F
$GPRMC,062022.000,A,2602.1057,S,02801.1476,E,0.15,322.86,180915,,,A*70
$GPGGA,062023.000,2602.1057,S,02801.1475,E,1,6,1.12,1506.3,M,22.5,M,,*7D
$GPRMC,062023.000,A,2602.1057,S,02801.1475,E,0.23,322.86,180915,,,A*77
$GPGGA,062024.000,2602.1058,S,02801.1475,E,1,6,1.12,1506.3,M,22.5,M,,*75
$GPRMC,062024.000,A,2602.1058,S,02801.1475,E,0.13,322.86,180915,,,A*7C
$GPGGA,062025.000,2602.1058,S,02801.1474,E,1,6,1.12,1506.3,M,22.5,M,,*75
$GPRMC,062025.000,A,2602.1058,S,02801.1474,E,0.07,322.86,180915,,,A*79
$GPGGA,062026.000,2602.1058,S,02801.1474,E,1,6,1.12,1506.3,M,22.5,M,,*76
$GPRMC,062026.000,A,2602.1058,S,02801.1474,E,0.21,322.86,180915,,,A*7E
$GPGGA,062027.000,2602.1057,S,02801.1474,E,1,6,1.12,1506.3,M,22.5,M,,*78
$GPRMC,062027.000,A,2602.1057,S,02801.1474,E,0.26,322.86,180915,,,A*77
$GPGGA,062028.000,2602.1057,S,02801.1473,E,1,6,1.12,1506.3,M,22.5,M,,*70
$GPRMC,062028.000,A,2602.1057,S,02801.1473,E,0.26,322.86,180915,,,A*7F
$GPGGA,062029.000,2602.1056,S,02801.1473,E,1,6,1.24,1506.3,M,22.5,M,,*75
$GPRMC,062029.000,A,2602.1056,S,02801.1473,E,0.31,322.86,180915,,,A*79
$GPGGA,062030.000,2602.1055,S,02801.1473,E,1,6,1.24,1506.3,M,22.5,M,,*7E
$GPRMC,062030.000,A,2602.1055,S,02801.1473,E,0.24,322.86,180915,,,A*76
$GPGGA,062031.000,2602.1054,S,02801.1473,E,1,6,1.24,1506.3,M,22.5,M,,*7E
$GPRMC,062031.000,A,2602.1054,S,02801.1473,E,0.15,322.86,180915,,,A*74
$GPGGA,062032.000,2602.1054,S,02801.1473,E,1,6,1.24,1506.3,M,22.5,M,,*7D
$GPRMC,062032.000,A,2602.1054,S,02801.1473,E,0.11,322.86,180915,,,A*73
$GPGGA,062033.000,2602.1054,S,02801.1473,E,1,6,1.12,1506.3,M,22.5,M,,*79
$GPRMC,062033.000,A,2602.1054,S,02801.1473,E,0.14,322.86,180915,,,A*77
$GPGGA,062034.000,2602.1054,S,02801.1474,E,1,6,1.12,1506.3,M,22.5,M,,*79
$GPRMC,062034.000,A,2602.1054,S,02801.1474,E,0.09,322.86,180915,,,A*7B
$GPGGA,062035.000,2602.1053,S,02801.1474,E,1,6,1.24,1506.3,M,22.5,M,,*7A
$GPRMC,062035.000,A,2602.1053,S,02801.1474,E,0.11,322.86,180915,,,A*74
$GPGGA,062036.000,2602.1053,S,02801.1473,E,1,6,1.12,1506.3,M,22.5,M,,*7B
$GPRMC,062036.000,A,2602.1053,S,02801.1473,E,0.19,322.86,180915,,,A*78
$GPGGA,062037.000,2602.1053,S,02801.1473,E,1,6,1.12,1506.3,M,22.5,M,,*7A
$GPRMC,062037.000,A,2602.1053,S,02801.1473,E,0.24,322.86,180915,,,A*77
$GPGGA,062038.000,2602.1052,S,02801.1473,E,1,6,1.24,1506.3,M,22.5,M,,*71
$GPRMC,062038.000,A,2602.1052,S,02801.1473,E,0.22,322.86,180915,,,A*7F
$GPGGA,062039.000,2602.1051,S,02801.1473,E,1,6,1.24,1506.3,M,22.5,M,,*73
$GPRMC,062039.000,A,2602.1051,S,02801.1473,E,0.06,322.86,180915,,,A*7B
$GPGGA,062040.000,2602.1051,S,02801.1473,E,1,6,1.12,1506.3,M,22.5,M,,*78
$GPRMC,062040.000,A,2602.1051,S,02801.1473,E,0.05,322.86,180915,,,A*76
$GPGGA,062041.000,2602.1051,S,02801.1473,E,1,6,1.12,1506.3,M,22.5,M,,*79
$GPRMC,062041.000,A,2602.1051,S,02801.1473,E,0.08,322.86,180915,,,A*7A
$GPGGA,062042.000,2602.1051,S,02801.1473,E,1,6,1.12,1506.3,M,22.5,M,,*7A
$GPRMC,062042.000,A,2602.1051,S,02801.1473,E,0.10,322.86,180915,,,A*70
$GPGGA,062043.000,2602.1051,S,02801.1473,E,1,6,1.12,1506.3,M,22.5,M,,*7B
$GPRMC,062043.000,A,2602.1051,S,02801.1473,E,0.13,322.86,180915,,,A*72
$GPGGA,062044.000,2602.1050,S,02801.1473,E,1,6,1.12,1506.3,M,22.5,M,,*7D
$GPRMC,062044.000,A,2602.1050,S,02801.1473,E,0.04,322.86,180915,,,A*72
$GPGGA,062045.000,2602.1050,S,02801.1473,E,1,5,1.27,1506.3,M,22.5,M,,*79
$GPRMC,062045.000,A,2602.1050,S,02801.1473,E,0.05,322.86,180915,,,A*72
$GPGGA,062046.000,2602.1050,S,02801.1473,E,1,6,1.24,1506.3,M,22.5,M,,*7A
$GPRMC,062046.000,A,2602.1050,S,02801.1473,E,0.18,322.86,180915,,,A*7D
$GPGGA,062047.000,2602.1050,S,02801.1473,E,1,6,1.12,1506.3,M,22.5,M,,*7E
$GPRMC,062047.000,A,2602.1050,S,02801.1473,E,0.14,322.86,180915,,,A*70
$GPGGA,062048.000,2602.1051,S,02801.1473,E,1,6,1.12,1506.3,M,22.5,M,,*70
$GPRMC,062048.000,A,2602.1051,S,02801.1473,E,0.10,322.86,180915,,,A*7A
$GPGGA,062049.000,2602.1051,S,02801.1473,E,1,6,1.12,1506.3,M,22.5,M,,*71
$GPRMC,062049.000,A,2602.1051,S,02801.1473,E,0.20,322.86,180915,,,A*78
$GPGGA,062050.000,2602.1051,S,02801.1473,E,1,6,1.12,1506.3,M,22.5,M,,*79
$GPRMC,062050.000,A,2602.1051,S,02801.1473,E,0.23,322.86,180915,,,A*73
$GPGGA,062051.000,2602.1052,S,02801.1473,E,1,6,1.12,1506.3,M,22.5,M,,*7B
$GPRMC,062051.000,A,2602.1052,S,02801.1473,E,0.19,322.86,180915,,,A*78
$GPGGA,062052.000,2602.1052,S,02801.1473,E,1,6,1.12,1506.3,M,22.5,M,,*78
$GPRMC,062052.000,A,2602.1052,S,02801.1473,E,0.18,322.86,180915,,,A*7A
$GPGGA,062053.000,2602.1053,S,02801.1473,E,1,6,1.12,1506.3,M,22.5,M,,*78
$GPRMC,062053.000,A,2602.1053,S,02801.1473,E,0.07,322.86,180915,,,A*74
$GPGGA,062054.000,2602.1053,S,02801.1472,E,1,6,1.12,1506.3,M,22.5,M,,*7E
$GPRMC,062054.000,A,2602.1053,S,02801.1472,E,0.08,322.86,180915,,,A*7D
$GPGGA,062055.000,2602.1053,S,02801.1472,E,1,6,1.12,1506.3,M,22.5,M,,*7F
$GPRMC,062055.000,A,2602.1053,S,02801.1472,E,0.15,322.86,180915,,,A*70
$GPGGA,062056.000,2602.1053,S,02801.1472,E,1,6,1.12,1506.3,M,22.5,M,,*7C
$GPRMC,062056.000,A,2602.1053,S,02801.1472,E,0.19,322.86,180915,,,A*7F
$GPGGA,062057.000,2602.1053,S,02801.1471,E,1,6,1.12,1506.4,M,22.5,M,,*79
$GPRMC,062057.000,A,2602.1053,S,02801.1471,E,0.19,322.86,180915,,,A*7D
$GPGGA,062058.000,2602.1053,S,02801.1470,E,1,6,1.12,1506.4,M,22.5,M,,*77
$GPRMC,062058.000,A,2602.1053,S,02801.1470,E,0.06,322.86,180915,,,A*7D
$GPGGA,062059.000,2602.1053,S,02801.1470,E,1,6,1.12,1506.4,M,22.5,M,,*76
$GPRMC,062059.000,A,2602.1053,S,02801.1470,E,0.08,322.86,180915,,,A*72
$GPGGA,062100.000,2602.1053,S,02801.1470,E,1,6,1.12,1506.4,M,22.5,M,,*7B
$GPRMC,062100.000,A,2602.1053,S,02801.1470,E,0.17,322.86,180915,,,A*71
$GPGGA,062101.000,2602.1053,S,02801.1470,E,1,6,1.12,1506.4,M,22.5,M,,*7A
$GPRMC,062101.000,A,2602.1053,S,02801.1470,E,0.14,322.86,180915,,,A*73
$GPGGA,062102.000,2602.1053,S,02801.1469,E,1,6,1.12,1506.4,M,22.5,M,,*71
$GPRMC,062102.000,A,2602.1053,S,02801.1469,E,0.18,322.86,180915,,,A*74
$GPGGA,062103.000,2602.1053,S,02801.1469,E,1,6,1.12,1506.4,M,22.5,M,,*70
$GPRMC,062103.000,A,2602.1053,S,02801.1469,E,0.15,322.86,180915,,,A*78
$GPGGA,062104.000,2602.1053,S,02801.1468,E,1,6,1.12,1506.4,M,22.5,M,,*76
$GPRMC,062104.000,A,2602.1053,S,02801.1468,E,0.22,322.86,180915,,,A*7A
$GPGGA,062105.000,2602.1053,S,02801.1467,E,1,6,1.12,1506.4,M,22.5,M,,*78
$GPRMC,062105.000,A,2602.1053,S,02801.1467,E,0.14,322.86,180915,,,A*71
$GPGGA,062106.000,2602.1053,S,02801.1467,E,1,6,1.12,1506.4,M,22.5,M,,*7B
$GPRMC,062106.000,A,2602.1053,S,02801.1467,E,0.19,322.86,180915,,,A*7F
$GPGGA,062107.000,2602.1053,S,02801.1466,E,1,6,1.12,1506.4,M,22.5,M,,*7B
$GPRMC,062107.000,A,2602.1053,S,02801.1466,E,0.13,322.86,180915,,,A*75
$GPGGA,062108.000,2602.1053,S,02801.1466,E,1,6,1.12,1506.4,M,22.5,M,,*74
$GPRMC,062108.000,A,2602.1053,S,02801.1466,E,0.19,322.86,180915,,,A*70
$GPGGA,062109.000,2602.1053,S,02801.1465,E,1,6,1.12,1506.4,M,22.5,M,,*76
$GPRMC,062109.000,A,2602.1053,S,02801.1465,E,0.28,322.86,180915,,,A*70
$GPGGA,062110.000,2602.1054,S,02801.1465,E,1,6,1.12,1506.4,M,22.5,M,,*79
$GPRMC,062110.000,A,2602.1054,S,02801.1465,E,0.28,322.86,180915,,,A*7F
$GPGGA,062111.000,2602.1054,S,02801.1464,E,1,6,1.12,1506.4,M,22.5,M,,*79
$GPRMC,062111.000,A,2602.1054,S,02801.1464,E,0.29,322.86,180915,,,A*7E
$GPGGA,062112.000,2602.1054,S,02801.1463,E,1,6,1.12,1506.4,M,22.5,M,,*7D
$GPRMC,062112.000,A,2602.1054,S,02801.1463,E,0.27,322.86,180915,,,A*74
$GPGGA,062113.000,2602.1054,S,02801.1462,E,1,6,1.12,1506.4,M,22.5,M,,*7D
$GPRMC,062113.000,A,2602.1054,S,02801.1462,E,0.22,322.86,180915,,,A*71
$GPGGA,062114.000,2602.1054,S,02801.1462,E,1,6,1.12,1506.4,M,22.5,M,,*7A
$GPRMC,062114.000,A,2602.1054,S,02801.1462,E,0.32,322.86,180915,,,A*77
$GPGGA,062115.000,2602.1054,S,02801.1461,E,1,6,1.12,1506.4,M,22.5,M,,*78
$GPRMC,062115.000,A,2602.1054,S,02801.1461,E,0.26,322.86,180915,,,A*70
$GPGGA,062116.000,2602.1054,S,02801.1460,E,1,6,1.12,1506.3,M,22.5,M,,*7D
$GPRMC,062116.000,A,2602.1054,S,02801.1460,E,0.24,322.86,180915,,,A*70
$GPGGA,062117.000,2602.1053,S,02801.1459,E,1,6,1.12,1506.3,M,22.5,M,,*71
$GPRMC,062117.000,A,2602.1053,S,02801.1459,E,0.12,322.86,180915,,,A*79
$GPGGA,062118.000,2602.1053,S,02801.1459,E,1,6,1.12,1506.3,M,22.5,M,,*7E
$GPRMC,062118.000,A,2602.1053,S,02801.1459,E,0.03,322.86,180915,,,A*76
$GPGGA,062119.000,2602.1053,S,02801.1459,E,1,6,1.24,1506.3,M,22.5,M,,*7A
$GPRMC,062119.000,A,2602.1053,S,02801.1459,E,0.04,322.86,180915,,,A*70
$GPGGA,062120.000,2602.1053,S,02801.1460,E,1,6,1.12,1506.3,M,22.5,M,,*7F
$GPRMC,062120.000,A,2602.1053,S,02801.1460,E,0.14,322.86,180915,,,A*71
$GPGGA,062121.000,2602.1052,S,02801.1460,E,1,6,1.12,1506.3,M,22.5,M,,*7F
$GPRMC,062121.000,A,2602.1052,S,02801.1460,E,0.23,322.86,180915,,,A*75
$GPGGA,062122.000,2602.1052,S,02801.1460,E,1,6,1.12,1506.3,M,22.5,M,,*7C
$GPRMC,062122.000,A,2602.1052,S,02801.1460,E,0.22,322.86,180915,,,A*77
$GPGGA,062123.000,2602.1051,S,02801.1461,E,1,6,1.24,1506.3,M,22.5,M,,*7A
$GPRMC,062123.000,A,2602.1051,S,02801.1461,E,0.02,322.86,180915,,,A*76
$GPGGA,062124.000,2602.1051,S,02801.1461,E,1,6,1.12,1506.3,M,22.5,M,,*78
$GPRMC,062124.000,A,2602.1051,S,02801.1461,E,0.08,322.86,180915,,,A*7B
$GPGGA,062125.000,2602.1052,S,02801.1461,E,1,6,1.12,1506.3,M,22.5,M,,*7A
$GPRMC,062125.000,A,2602.1052,S,02801.1461,E,0.06,322.86,180915,,,A*77
$GPGGA,062126.000,2602.1052,S,02801.1461,E,1,6,1.12,1506.3,M,22.5,M,,*79
$GPRMC,062126.000,A,2602.1052,S,02801.1461,E,0.05,322.86,180915,,,A*77
$GPGGA,062127.000,2602.1052,S,02801.1460,E,1,6,1.12,1506.3,M,22.5,M,,*79
$GPRMC,062127.000,A,2602.1052,S,02801.1460,E,0.10,322.86,180915,,,A*73
$GPGGA,062128.000,2602.1052,S,02801.1460,E,1,6,1.12,1506.3,M,22.5,M,,*76
$GPRMC,062128.000,A,2602.1052,S,02801.1460,E,0.12,322.86,180915,,,A*7E
$GPGGA,062129.000,2602.1051,S,02801.1460,E,1,6,1.24,1506.3,M,22.5,M,,*71
$GPRMC,062129.000,A,2602.1051,S,02801.1460,E,0.06,322.86,180915,,,A*79
$GPGGA,062130.000,2602.1051,S,02801.1460,E,1,6,1.12,1506.3,M,22.5,M,,*7C
$GPRMC,062130.000,A,2602.1051,S,02801.1460,E,0.09,322.86,180915,,,A*7E
$GPGGA,062131.000,2602.1051,S,02801.1460,E,1,6,1.11,1506.3,M,22.5,M,,*7E
$GPRMC,062131.000,A,2602.1051,S,02801.1460,E,0.17,322.86,180915,,,A*70
$GPGGA,062132.000,2602.1051,S,02801.1459,E,1,6,1.12,1506.3,M,22.5,M,,*74
$GPRMC,062132.000,A,2602.1051,S,02801.1459,E,0.10,322.86,180915,,,A*7E
$GPGGA,062133.000,2602.1052,S,02801.1459,E,1,6,1.12,1506.3,M,22.5,M,,*76
$GPRMC,062133.000,A,2602.1052,S,02801.1459,E,0.11,322.86,180915,,,A*7D
$GPGGA,062134.000,2602.1052,S,02801.1459,E,1,6,1.12,1506.3,M,22.5,M,,*71
$GPRMC,062134.000,A,2602.1052,S,02801.1459,E,0.11,322.86,180915,,,A*7A
$GPGGA,062135.000,2602.1052,S,02801.1459,E,1,6,1.12,1506.3,M,22.5,M,,*70
$GPRMC,062135.000,A,2602.1052,S,02801.1459,E,0.13,322.86,180915,,,A*79
$GPGGA,062136.000,2602.1052,S,02801.1458,E,1,6,1.12,1506.3,M,22.5,M,,*72
$GPRMC,062136.000,A,2602.1052,S,02801.1458,E,0.10,322.86,180915,,,A*78
$GPGGA,062137.000,2602.1053,S,02801.1458,E,1,6,1.11,1506.3,M,22.5,M,,*71
$GPRMC,062137.000,A,2602.1053,S,02801.1458,E,0.20,322.86,180915,,,A*7B
$GPGGA,062138.000,2602.1053,S,02801.1458,E,1,6,1.12,1506.3,M,22.5,M,,*7D
$GPRMC,062138.000,A,2602.1053,S,02801.1458,E,0.15,322.86,180915,,,A*72
$GPGGA,062139.000,2602.1054,S,02801.1458,E,1,6,1.12,1506.3,M,22.5,M,,*7B
$GPRMC,062139.000,A,2602.1054,S,02801.1458,E,0.08,322.86,180915,,,A*78
$GPGGA,062140.000,2602.1054,S,02801.1458,E,1,6,1.11,1506.3,M,22.5,M,,*76
$GPRMC,062140.000,A,2602.1054,S,02801.1458,E,0.06,322.86,180915,,,A*78
$GPGGA,062141.000,2602.1054,S,02801.1458,E,1,6,1.24,1506.3,M,22.5,M,,*71
$GPRMC,062141.000,A,2602.1054,S,02801.1458,E,0.06,322.86,180915,,,A*79
$GPGGA,062142.000,2602.1054,S,02801.1458,E,1,6,1.11,1506.3,M,22.5,M,,*74
$GPRMC,062142.000,A,2602.1054,S,02801.1458,E,0.15,322.86,180915,,,A*78
$GPGGA,062143.000,2602.1054,S,02801.1458,E,1,6,1.11,1506.3,M,22.5,M,,*75
$GPRMC,062143.000,A,2602.1054,S,02801.1458,E,0.16,322.86,180915,,,A*7A
$GPGGA,062144.000,2602.1055,S,02801.1458,E,1,6,1.11,1506.3,M,22.5,M,,*73
$GPRMC,062144.000,A,2602.1055,S,02801.1458,E,0.31,322.86,180915,,,A*79
$GPGGA,062145.000,2602.1056,S,02801.1458,E,1,6,1.12,1506.3,M,22.5,M,,*72
$GPRMC,062145.000,A,2602.1056,S,02801.1458,E,0.24,322.86,180915,,,A*7F
$GPGGA,062146.000,2602.1056,S,02801.1458,E,1,6,1.11,1506.3,M,22.5,M,,*72
$GPRMC,062146.000,A,2602.1056,S,02801.1458,E,0.19,322.86,180915,,,A*72
$GPGGA,062147.000,2602.1057,S,02801.1458,E,1,6,1.12,1506.3,M,22.5,M,,*71
$GPRMC,062147.000,A,2602.1057,S,02801.1458,E,0.21,322.86,180915,,,A*79
$GPGGA,062148.000,2602.1057,S,02801.1459,E,1,6,1.12,1506.3,M,22.5,M,,*7F
$GPRMC,062148.000,A,2602.1057,S,02801.1459,E,0.18,322.86,180915,,,A*7D
$GPGGA,062149.000,2602.1058,S,02801.1459,E,1,6,1.11,1506.3,M,22.5,M,,*72
$GPRMC,062149.000,A,2602.1058,S,02801.1459,E,0.26,322.86,180915,,,A*7E
$GPGGA,062150.000,2602.1059,S,02801.1459,E,1,6,1.11,1506.3,M,22.5,M,,*7B
$GPRMC,062150.000,A,2602.1059,S,02801.1459,E,0.26,322.86,180915,,,A*77
$GPGGA,062151.000,2602.1059,S,02801.1460,E,1,6,1.11,1506.3,M,22.5,M,,*70
$GPRMC,062151.000,A,2602.1059,S,02801.1460,E,0.33,322.86,180915,,,A*78
$GPGGA,062152.000,2602.1060,S,02801.1460,E,1,6,1.11,1506.3,M,22.5,M,,*79
$GPRMC,062152.000,A,2602.1060,S,02801.1460,E,0.29,322.86,180915,,,A*7A
$GPGGA,062153.000,2602.1061,S,02801.1461,E,1,6,1.11,1506.3,M,22.5,M,,*78
$GPRMC,062153.000,A,2602.1061,S,02801.1461,E,0.21,322.86,180915,,,A*73
$GPGGA,062154.000,2602.1061,S,02801.1461,E,1,6,1.11,1506.3,M,22.5,M,,*7F
$GPRMC,062154.000,A,2602.1061,S,02801.1461,E,0.17,322.86,180915,,,A*71
$GPGGA,062155.000,2602.1062,S,02801.1462,E,1,6,1.11,1506.3,M,22.5,M,,*7E
$GPRMC,062155.000,A,2602.1062,S,02801.1462,E,0.21,322.86,180915,,,A*75
$GPGGA,062156.000,2602.1062,S,02801.1462,E,1,6,1.12,1506.3,M,22.5,M,,*7E
$GPRMC,062156.000,A,2602.1062,S,02801.1462,E,0.14,322.86,180915,,,A*70
$GPGGA,062157.000,2602.1062,S,02801.1462,E,1,6,1.11,1506.3,M,22.5,M,,*7C
$GPRMC,062157.000,A,2602.1062,S,02801.1462,E,0.07,322.86,180915,,,A*73
$GPGGA,062158.000,2602.1063,S,02801.1463,E,1,6,1.11,1506.3,M,22.5,M,,*73
$GPRMC,062158.000,A,2602.1063,S,02801.1463,E,0.13,322.86,180915,,,A*79
$GPGGA,062159.000,2602.1063,S,02801.1463,E,1,6,1.11,1506.3,M,22.5,M,,*72
$GPRMC,062159.000,A,2602.1063,S,02801.1463,E,0.15,322.86,180915,,,A*7E
$GPGGA,062200.000,2602.1063,S,02801.1463,E,1,6,1.11,1506.3,M,22.5,M,,*7D
$GPRMC,062200.000,A,2602.1063,S,02801.1463,E,0.17,322.86,180915,,,A*73
$GPGGA,062201.000,2602.1064,S,02801.1464,E,1,6,1.11,1506.3,M,22.5,M,,*7C
$GPRMC,062201.000,A,2602.1064,S,02801.1464,E,0.08,322.86,180915,,,A*7C
$GPGGA,062202.000,2602.1064,S,02801.1464,E,1,6,1.11,1506.3,M,22.5,M,,*7F
$GPRMC,062202.000,A,2602.1064,S,02801.1464,E,0.16,322.86,180915,,,A*70
$GPGGA,062203.000,2602.1064,S,02801.1464,E,1,6,1.11,1506.3,M,22.5,M,,*7E
$GPRMC,062203.000,A,2602.1064,S,02801.1464,E,0.17,322.86,180915,,,A*70
$GPGGA,062204.000,2602.1064,S,02801.1465,E,1,6,1.11,1506.3,M,22.5,M,,*78
$GPRMC,062204.000,A,2602.1064,S,02801.1465,E,0.27,322.86,180915,,,A*75
$GPGGA,062205.000,2602.1065,S,02801.1465,E,1,6,1.11,1506.3,M,22.5,M,,*78
$GPRMC,062205.000,A,2602.1065,S,02801.1465,E,0.36,322.86,180915,,,A*75
$GPGGA,062206.000,2602.1066,S,02801.1465,E,1,6,1.11,1506.3,M,22.5,M,,*78
$GPRMC,062206.000,A,2602.1066,S,02801.1465,E,0.32,322.86,180915,,,A*71
$GPGGA,062207.000,2602.1067,S,02801.1466,E,1,6,1.11,1506.3,M,22.5,M,,*7B
$GPRMC,062207.000,A,2602.1067,S,02801.1466,E,0.30,322.86,180915,,,A*70
$GPGGA,062208.000,2602.1068,S,02801.1466,E,1,6,1.11,1506.3,M,22.5,M,,*7B
$GPRMC,062208.000,A,2602.1068,S,02801.1466,E,0.35,322.86,180915,,,A*75
$GPGGA,062209.000,2602.1068,S,02801.1465,E,1,6,1.11,1506.3,M,22.5,M,,*79
$GPRMC,062209.000,A,2602.1068,S,02801.1465,E,0.35,322.86,180915,,,A*77
$GPGGA,062210.000,2602.1070,S,02801.1465,E,1,6,1.11,1506.3,M,22.5,M,,*78
$GPRMC,062210.000,A,2602.1070,S,02801.1465,E,0.46,322.86,180915,,,A*72
$GPGGA,062211.000,2602.1071,S,02801.1465,E,1,6,1.11,1506.3,M,22.5,M,,*78
$GPRMC,062211.000,A,2602.1071,S,02801.1465,E,0.38,322.86,180915,,,A*7B
$GPGGA,062212.000,2602.1072,S,02801.1465,E,1,6,1.11,1506.3,M,22.5,M,,*78
$GPRMC,062212.000,A,2602.1072,S,02801.1465,E,0.24,322.86,180915,,,A*76
$GPGGA,062213.000,2602.1072,S,02801.1465,E,1,6,1.11,1506.3,M,22.5,M,,*79
$GPRMC,062213.000,A,2602.1072,S,02801.1465,E,0.18,322.86,180915,,,A*78
$GPGGA,062214.000,2602.1073,S,02801.1465,E,1,6,1.11,1506.3,M,22.5,M,,*7F
$GPRMC,062214.000,A,2602.1073,S,02801.1465,E,0.16,322.86,180915,,,A*70
$GPGGA,062215.000,2602.1073,S,02801.1464,E,1,6,1.11,1506.3,M,22.5,M,,*7F
$GPRMC,062215.000,A,2602.1073,S,02801.1464,E,0.07,322.86,180915,,,A*70
$GPGGA,062216.000,2602.1074,S,02801.1464,E,1,6,1.11,1506.3,M,22.5,M,,*7B
$GPRMC,062216.000,A,2602.1074,S,02801.1464,E,0.05,322.86,180915,,,A*76
$GPGGA,062217.000,2602.1074,S,02801.1464,E,1,6,1.11,1506.3,M,22.5,M,,*7A
$GPRMC,062217.000,A,2602.1074,S,02801.1464,E,0.09,322.86,180915,,,A*7B
$GPGGA,062218.000,2602.1074,S,02801.1464,E,1,6,1.11,1506.3,M,22.5,M,,*75
$GPRMC,062218.000,A,2602.1074,S,02801.1464,E,0.13,322.86,180915,,,A*7F
$GPGGA,062219.000,2602.1074,S,02801.1464,E,1,6,1.11,1506.3,M,22.5,M,,*74
$GPRMC,062219.000,A,2602.1074,S,02801.1464,E,0.12,322.86,180915,,,A*7F
$GPGGA,062220.000,2602.1074,S,02801.1464,E,1,6,1.11,1506.3,M,22.5,M,,*7E
$GPRMC,062220.000,A,2602.1074,S,02801.1464,E,0.16,322.86,180915,,,A*71
$GPGGA,062221.000,2602.1075,S,02801.1464,E,1,6,1.11,1506.3,M,22.5,M,,*7E
$GPRMC,062221.000,A,2602.1075,S,02801.1464,E,0.07,322.86,180915,,,A*71
$GPGGA,062222.000,2602.1075,S,02801.1463,E,1,6,1.11,1506.3,M,22.5,M,,*7A
$GPRMC,062222.000,A,2602.1075,S,02801.1463,E,0.05,322.86,180915,,,A*77
$GPGGA,062223.000,2602.1075,S,02801.1463,E,1,6,1.11,1506.3,M,22.5,M,,*7B
$GPRMC,062223.000,A,2602.1075,S,02801.1463,E,0.09,322.86,180915,,,A*7A
$GPGGA,062224.000,2602.1075,S,02801.1464,E,1,6,1.11,1506.3,M,22.5,M,,*7B
$GPRMC,062224.000,A,2602.1075,S,02801.1464,E,0.06,322.86,180915,,,A*75
$GPGGA,062225.000,2602.1075,S,02801.1464,E,1,6,1.11,1506.3,M,22.5,M,,*7A
$GPRMC,062225.000,A,2602.1075,S,02801.1464,E,0.21,322.86,180915,,,A*71
$GPGGA,062226.000,2602.1076,S,02801.1464,E,1,6,1.11,1506.3,M,22.5,M,,*7A
$GPRMC,062226.000,A,2602.1076,S,02801.1464,E,0.18,322.86,180915,,,A*7B
$GPGGA,062227.000,2602.1076,S,02801.1463,E,1,6,1.11,1506.3,M,22.5,M,,*7C
$GPRMC,062227.000,A,2602.1076,S,02801.1463,E,0.12,322.86,180915,,,A*77
$GPGGA,062228.000,2602.1076,S,02801.1463,E,1,6,1.11,1506.3,M,22.5,M,,*73
$GPRMC,062228.000,A,2602.1076,S,02801.1463,E,0.21,322.86,180915,,,A*78
$GPGGA,062229.000,2602.1077,S,02801.1463,E,1,6,1.11,1506.3,M,22.5,M,,*73
$GPRMC,062229.000,A,2602.1077,S,02801.1463,E,0.22,322.86,180915,,,A*7B
$GPGGA,062230.000,2602.1077,S,02801.1462,E,1,6,1.11,1506.3,M,22.5,M,,*7A
$GPRMC,062230.000,A,2602.1077,S,02801.1462,E,0.20,322.86,180915,,,A*70
$GPGGA,062231.000,2602.1077,S,02801.1462,E,1,6,1.11,1506.3,M,22.5,M,,*7B
$GPRMC,062231.000,A,2602.1077,S,02801.1462,E,0.19,322.86,180915,,,A*7B
$GPGGA,062232.000,2602.1078,S,02801.1462,E,1,6,1.11,1506.3,M,22.5,M,,*77
$GPRMC,062232.000,A,2602.1078,S,02801.1462,E,0.13,322.86,180915,,,A*7D
$GPGGA,062233.000,2602.1078,S,02801.1462,E,1,6,1.11,1506.3,M,22.5,M,,*76
$GPRMC,062233.000,A,2602.1078,S,02801.1462,E,0.15,322.86,180915,,,A*7A
$GPGGA,062234.000,2602.1079,S,02801.1462,E,1,6,1.11,1506.3,M,22.5,M,,*70
$GPRMC,062234.000,A,2602.1079,S,02801.1462,E,0.21,322.86,180915,,,A*7B
$GPGGA,062235.000,2602.1079,S,02801.1463,E,1,6,1.11,1506.3,M,22.5,M,,*70
$GPRMC,062235.000,A,2602.1079,S,02801.1463,E,0.16,322.86,180915,,,A*7F
$GPGGA,062236.000,2602.1079,S,02801.1463,E,1,6,1.11,1506.3,M,22.5,M,,*73
$GPRMC,062236.000,A,2602.1079,S,02801.1463,E,0.16,322.86,180915,,,A*7C
$GPGGA,062237.000,2602.1080,S,02801.1463,E,1,6,1.11,1506.3,M,22.5,M,,*74
$GPRMC,062237.000,A,2602.1080,S,02801.1463,E,0.16,322.86,180915,,,A*7B
$GPGGA,062238.000,2602.1080,S,02801.1464,E,1,6,1.11,1506.3,M,22.5,M,,*7C
$GPRMC,062238.000,A,2602.1080,S,02801.1464,E,0.09,322.86,180915,,,A*7D
$GPGGA,062239.000,2602.1080,S,02801.1464,E,1,6,1.11,1506.3,M,22.5,M,,*7D
$GPRMC,062239.000,A,2602.1080,S,02801.1464,E,0.14,322.86,180915,,,A*70
$GPGGA,062240.000,2602.1080,S,02801.1464,E,1,6,1.11,1506.3,M,22.5,M,,*73
$GPRMC,062240.000,A,2602.1080,S,02801.1464,E,0.17,322.86,180915,,,A*7D
$GPGGA,062241.000,2602.1081,S,02801.1464,E,1,6,1.11,1506.3,M,22.5,M,,*73
$GPRMC,062241.000,A,2602.1081,S,02801.1464,E,0.11,322.86,180915,,,A*7B
$GPGGA,062242.000,2602.1081,S,02801.1464,E,1,6,1.11,1506.3,M,22.5,M,,*70
$GPRMC,062242.000,A,2602.1081,S,02801.1464,E,0.05,322.86,180915,,,A*7D
$GPGGA,062243.000,2602.1081,S,02801.1464,E,1,6,1.11,1506.3,M,22.5,M,,*71
$GPRMC,062243.000,A,2602.1081,S,02801.1464,E,0.14,322.86,180915,,,A*7C
$GPGGA,062244.000,2602.1081,S,02801.1464,E,1,6,1.11,1506.3,M,22.5,M,,*76
$GPRMC,062244.000,A,2602.1081,S,02801.1464,E,0.09,322.86,180915,,,A*77
$GPGGA,062245.000,2602.1081,S,02801.1464,E,1,6,1.11,1506.3,M,22.5,M,,*77
$GPRMC,062245.000,A,2602.1081,S,02801.1464,E,0.04,322.86,180915,,,A*7B
$GPGGA,062246.000,2602.1081,S,02801.1464,E,1,6,1.11,1506.3,M,22.5,M,,*74
$GPRMC,062246.000,A,2602.1081,S,02801.1464,E,0.04,322.86,180915,,,A*78
$GPGGA,062247.000,2602.1081,S,02801.1464,E,1,6,1.11,1506.3,M,22.5,M,,*75
$GPRMC,062247.000,A,2602.1081,S,02801.1464,E,0.05,322.86,180915,,,A*78
$GPGGA,062248.000,2602.1081,S,02801.1463,E,1,6,1.11,1506.3,M,22.5,M,,*7D
$GPRMC,062248.000,A,2602.1081,S,02801.1463,E,0.04,322.86,180915,,,A*71
$GPGGA,062249.000,2602.1081,S,02801.1464,E,1,6,1.11,1506.3,M,22.5,M,,*7B
$GPRMC,062249.000,A,2602.1081,S,02801.1464,E,0.09,322.86,180915,,,A*7A
$GPGGA,062250.000,2602.1081,S,02801.1464,E,1,7,1.10,1506.3,M,22.5,M,,*73
$GPRMC,062250.000,A,2602.1081,S,02801.1464,E,0.15,322.86,180915,,,A*7F
$GPGGA,062251.000,2602.1080,S,02801.1464,E,1,7,1.10,1506.3,M,22.5,M,,*73
$GPRMC,062251.000,A,2602.1080,S,02801.1464,E,0.18,322.86,180915,,,A*72
$GPGGA,062252.000,2602.1080,S,02801.1465,E,1,7,1.10,1506.3,M,22.5,M,,*71
$GPRMC,062252.000,A,2602.1080,S,02801.1465,E,0.19,322.86,180915,,,A*71
$GPGGA,062253.000,2602.1080,S,02801.1465,E,1,7,1.10,1506.3,M,22.5,M,,*70
$GPRMC,062253.000,A,2602.1080,S,02801.1465,E,0.31,322.86,180915,,,A*7A
$GPGGA,062254.000,2602.1080,S,02801.1466,E,1,7,1.10,1506.3,M,22.5,M,,*74
$GPRMC,062254.000,A,2602.1080,S,02801.1466,E,0.36,322.86,180915,,,A*79
$GPGGA,062255.000,2602.1080,S,02801.1467,E,1,7,1.10,1506.3,M,22.5,M,,*74
$GPRMC,062255.000,A,2602.1080,S,02801.1467,E,0.30,322.86,180915,,,A*7F
$GPGGA,062256.000,2602.1080,S,02801.1468,E,1,7,1.10,1506.3,M,22.5,M,,*78
$GPRMC,062256.000,A,2602.1080,S,02801.1468,E,0.30,322.86,180915,,,A*73
$GPGGA,062257.000,2602.1080,S,02801.1469,E,1,7,1.10,1506.3,M,22.5,M,,*78
$GPRMC,062257.000,A,2602.1080,S,02801.1469,E,0.06,322.86,180915,,,A*76
$GPGGA,062258.000,2602.1080,S,02801.1469,E,1,7,1.10,1506.3,M,22.5,M,,*77
$GPRMC,062258.000,A,2602.1080,S,02801.1469,E,0.19,322.86,180915,,,A*77
$GPGGA,062259.000,2602.1080,S,02801.1469,E,1,7,1.10,1506.3,M,22.5,M,,*76
$GPRMC,062259.000,A,2602.1080,S,02801.1469,E,0.18,322.86,180915,,,A*77
$GPGGA,062300.000,2602.1081,S,02801.1468,E,1,7,1.10,1506.3,M,22.5,M,,*7B
$GPRMC,062300.000,A,2602.1081,S,02801.1468,E,0.23,322.86,180915,,,A*72
$GPGGA,062301.000,2602.1081,S,02801.1468,E,1,7,1.10,1506.3,M,22.5,M,,*7A
$GPRMC,062301.000,A,2602.1081,S,02801.1468,E,0.18,322.86,180915,,,A*7B
$GPGGA,062302.000,2602.1081,S,02801.1468,E,1,7,1.10,1506.3,M,22.5,M,,*79
$GPRMC,062302.000,A,2602.1081,S,02801.1468,E,0.28,322.86,180915,,,A*7B
$GPGGA,062303.000,2602.1082,S,02801.1467,E,1,7,1.10,1506.3,M,22.5,M,,*74
$GPRMC,062303.000,A,2602.1082,S,02801.1467,E,0.33,322.86,180915,,,A*7C
$GPGGA,062304.000,2602.1082,S,02801.1466,E,1,7,1.10,1506.3,M,22.5,M,,*72
$GPRMC,062304.000,A,2602.1082,S,02801.1466,E,0.26,322.86,180915,,,A*7E
$GPGGA,062305.000,2602.1083,S,02801.1465,E,1,7,1.10,1506.3,M,22.5,M,,*71
$GPRMC,062305.000,A,2602.1083,S,02801.1465,E,0.22,322.86,180915,,,A*79
$GPGGA,062306.000,2602.1083,S,02801.1465,E,1,7,1.10,1506.3,M,22.5,M,,*72
$GPRMC,062306.000,A,2602.1083,S,02801.1465,E,0.19,322.86,180915,,,A*72
$GPGGA,062307.000,2602.1084,S,02801.1465,E,1,7,1.10,1506.3,M,22.5,M,,*74
$GPRMC,062307.000,A,2602.1084,S,02801.1465,E,0.14,322.86,180915,,,A*79
$GPGGA,062308.000,2602.1084,S,02801.1465,E,1,7,1.10,1506.3,M,22.5,M,,*7B
$GPRMC,062308.000,A,2602.1084,S,02801.1465,E,0.13,322.86,180915,,,A*71
$GPGGA,062309.000,2602.1084,S,02801.1466,E,1,7,1.10,1506.3,M,22.5,M,,*79
$GPRMC,062309.000,A,2602.1084,S,02801.1466,E,0.12,322.86,180915,,,A*72
$GPGGA,062310.000,2602.1084,S,02801.1466,E,1,7,1.10,1506.3,M,22.5,M,,*71
$GPRMC,062310.000,A,2602.1084,S,02801.1466,E,0.19,322.86,180915,,,A*71
$GPGGA,062311.000,2602.1083,S,02801.1467,E,1,7,1.10,1506.3,M,22.5,M,,*76
$GPRMC,062311.000,A,2602.1083,S,02801.1467,E,0.19,322.86,180915,,,A*76
$GPGGA,062312.000,2602.1084,S,02801.1467,E,1,7,1.10,1506.3,M,22.5,M,,*72
$GPRMC,062312.000,A,2602.1084,S,02801.1467,E,0.22,322.86,180915,,,A*7A
$GPGGA,062313.000,2602.1084,S,02801.1468,E,1,7,1.10,1506.3,M,22.5,M,,*7C
$GPRMC,062313.000,A,2602.1084,S,02801.1468,E,0.19,322.86,180915,,,A*7C
$GPGGA,062314.000,2602.1084,S,02801.1468,E,1,7,1.10,1506.3,M,22.5,M,,*7B
$GPRMC,062314.000,A,2602.1084,S,02801.1468,E,0.23,322.86,180915,,,A*72
$GPGGA,062315.000,2602.1085,S,02801.1468,E,1,7,1.10,1506.3,M,22.5,M,,*7B
$GPRMC,062315.000,A,2602.1085,S,02801.1468,E,0.40,322.86,180915,,,A*77
$GPGGA,062316.000,2602.1085,S,02801.1467,E,1,7,1.10,1506.3,M,22.5,M,,*77
$GPRMC,062316.000,A,2602.1085,S,02801.1467,E,0.40,322.86,180915,,,A*7B
$GPGGA,062317.000,2602.1086,S,02801.1466,E,1,7,1.10,1506.3,M,22.5,M,,*74
$GPRMC,062317.000,A,2602.1086,S,02801.1466,E,0.28,322.86,180915,,,A*76
$GPGGA,062318.000,2602.1086,S,02801.1465,E,1,7,1.10,1506.3,M,22.5,M,,*78
$GPRMC,062318.000,A,2602.1086,S,02801.1465,E,0.19,322.86,180915,,,A*78
$GPGGA,062319.000,2602.1085,S,02801.1465,E,1,7,1.10,1506.3,M,22.5,M,,*7A
$GPRMC,062319.000,A,2602.1085,S,02801.1465,E,0.23,322.86,180915,,,A*73
$GPGGA,062320.000,2602.1085,S,02801.1465,E,1,7,1.19,1506.3,M,22.5,M,,*79
$GPRMC,062320.000,A,2602.1085,S,02801.1465,E,0.30,322.86,180915,,,A*7B
$GPGGA,062321.000,2602.1084,S,02801.1465,E,1,7,1.10,1506.3,M,22.5,M,,*70
$GPRMC,062321.000,A,2602.1084,S,02801.1465,E,0.19,322.86,180915,,,A*70
$GPGGA,062322.000,2602.1083,S,02801.1465,E,1,7,1.19,1506.3,M,22.5,M,,*7D
$GPRMC,062322.000,A,2602.1083,S,02801.1465,E,0.21,322.86,180915,,,A*7F
$GPGGA,062323.000,2602.1083,S,02801.1465,E,1,7,1.10,1506.3,M,22.5,M,,*75
$GPRMC,062323.000,A,2602.1083,S,02801.1465,E,0.17,322.86,180915,,,A*7B
$GPGGA,062324.000,2602.1082,S,02801.1465,E,1,7,1.10,1506.3,M,22.5,M,,*73
$GPRMC,062324.000,A,2602.1082,S,02801.1465,E,0.20,322.86,180915,,,A*79
$GPGGA,062325.000,2602.1082,S,02801.1464,E,1,7,1.10,1506.3,M,22.5,M,,*73
$GPRMC,062325.000,A,2602.1082,S,02801.1464,E,0.15,322.86,180915,,,A*7F
$GPGGA,062326.000,2602.1082,S,02801.1464,E,1,7,1.10,1506.3,M,22.5,M,,*70
$GPRMC,062326.000,A,2602.1082,S,02801.1464,E,0.07,322.86,180915,,,A*7F
$GPGGA,062327.000,2602.1081,S,02801.1464,E,1,7,1.19,1506.3,M,22.5,M,,*7B
$GPRMC,062327.000,A,2602.1081,S,02801.1464,E,0.01,322.86,180915,,,A*7B
$GPGGA,062328.000,2602.1082,S,02801.1464,E,1,7,1.10,1506.3,M,22.5,M,,*7E
$GPRMC,062328.000,A,2602.1082,S,02801.1464,E,0.20,322.86,180915,,,A*74
$GPGGA,062329.000,2602.1082,S,02801.1464,E,1,7,1.10,1506.3,M,22.5,M,,*7F
$GPRMC,062329.000,A,2602.1082,S,02801.1464,E,0.25,322.86,180915,,,A*70
$GPGGA,062330.000,2602.1083,S,02801.1464,E,1,7,1.10,1506.3,M,22.5,M,,*76
$GPRMC,062330.000,A,2602.1083,S,02801.1464,E,0.26,322.86,180915,,,A*7A
$GPGGA,062331.000,2602.1083,S,02801.1465,E,1,7,1.10,1506.3,M,22.5,M,,*76
$GPRMC,062331.000,A,2602.1083,S,02801.1465,E,0.21,322.86,180915,,,A*7D
$GPGGA,062332.000,2602.1084,S,02801.1465,E,1,7,1.10,1506.3,M,22.5,M,,*72
$GPRMC,062332.000,A,2602.1084,S,02801.1465,E,0.13,322.86,180915,,,A*78
$GPGGA,062333.000,2602.1084,S,02801.1465,E,1,7,1.10,1506.3,M,22.5,M,,*73
$GPRMC,062333.000,A,2602.1084,S,02801.1465,E,0.13,322.86,180915,,,A*79
$GPGGA,062334.000,2602.1084,S,02801.1465,E,1,7,1.10,1506.3,M,22.5,M,,*74
$GPRMC,062334.000,A,2602.1084,S,02801.1465,E,0.06,322.86,180915,,,A*7A
$GPGGA,062335.000,2602.1084,S,02801.1465,E,1,7,1.10,1506.3,M,22.5,M,,*75
$GPRMC,062335.000,A,2602.1084,S,02801.1465,E,0.10,322.86,180915,,,A*7C
$GPGGA,062336.000,2602.1084,S,02801.1465,E,1,7,1.10,1506.3,M,22.5,M,,*76
$GPRMC,062336.000,A,2602.1084,S,02801.1465,E,0.08,322.86,180915,,,A*76
$GPGGA,062337.000,2602.1084,S,02801.1465,E,1,7,1.10,1506.3,M,22.5,M,,*77
$GPRMC,062337.000,A,2602.1084,S,02801.1465,E,0.10,322.86,180915,,,A*7E
$GPGGA,062338.000,2602.1085,S,02801.1467,E,1,7,1.10,1506.4,M,22.5,M,,*7C
$GPRMC,062338.000,A,2602.1085,S,02801.1467,E,0.10,322.86,180915,,,A*72
$GPGGA,062339.000,2602.1087,S,02801.1469,E,1,7,1.10,1506.4,M,22.5,M,,*71
$GPRMC,062339.000,A,2602.1087,S,02801.1469,E,0.13,322.86,180915,,,A*7C
$GPGGA,062340.000,2602.1086,S,02801.1471,E,1,7,1.10,1506.4,M,22.5,M,,*77
$GPRMC,062340.000,A,2602.1086,S,02801.1471,E,0.17,322.86,180915,,,A*7E
$GPGGA,062341.000,2602.1085,S,02801.1473,E,1,7,1.10,1506.4,M,22.5,M,,*77
$GPRMC,062341.000,A,2602.1085,S,02801.1473,E,0.21,322.86,180915,,,A*7B
$GPGGA,062342.000,2602.1083,S,02801.1474,E,1,7,1.10,1506.4,M,22.5,M,,*75
$GPRMC,062342.000,A,2602.1083,S,02801.1474,E,0.17,322.86,180915,,,A*7C
$GPGGA,062343.000,2602.1084,S,02801.1477,E,1,7,1.10,1506.4,M,22.5,M,,*70
$GPRMC,062343.000,A,2602.1084,S,02801.1477,E,0.21,322.86,180915,,,A*7C
$GPGGA,062344.000,2602.1082,S,02801.1478,E,1,7,1.10,1506.5,M,22.5,M,,*7F
$GPRMC,062344.000,A,2602.1082,S,02801.1478,E,0.19,322.86,180915,,,A*79
$GPGGA,062345.000,2602.1083,S,02801.1479,E,1,7,1.10,1506.4,M,22.5,M,,*7F
$GPRMC,062345.000,A,2602.1083,S,02801.1479,E,0.20,322.86,180915,,,A*72
$GPGGA,062346.000,2602.1082,S,02801.1480,E,1,7,1.10,1506.4,M,22.5,M,,*7B
$GPRMC,062346.000,A,2602.1082,S,02801.1480,E,0.20,322.86,180915,,,A*76
$GPGGA,062347.000,2602.1082,S,02801.1481,E,1,7,1.10,1506.4,M,22.5,M,,*7B
$GPRMC,062347.000,A,2602.1082,S,02801.1481,E,0.20,322.86,180915,,,A*76
$GPGGA,062348.000,2602.1080,S,02801.1482,E,1,7,1.10,1506.4,M,22.5,M,,*75
$GPRMC,062348.000,A,2602.1080,S,02801.1482,E,0.19,322.86,180915,,,A*72
$GPGGA,062349.000,2602.1079,S,02801.1482,E,1,7,1.10,1506.4,M,22.5,M,,*72
$GPRMC,062349.000,A,2602.1079,S,02801.1482,E,0.18,322.86,180915,,,A*74
$GPGGA,062350.000,2602.1079,S,02801.1484,E,1,7,1.10,1506.4,M,22.5,M,,*7C
$GPRMC,062350.000,A,2602.1079,S,02801.1484,E,0.18,322.86,180915,,,A*7A
$GPGGA,062351.000,2602.1079,S,02801.1484,E,1,7,1.10,1506.4,M,22.5,M,,*7D
$GPRMC,062351.000,A,2602.1079,S,02801.1484,E,0.23,322.86,180915,,,A*73
$GPGGA,062352.000,2602.1080,S,02801.1484,E,1,7,1.10,1506.4,M,22.5,M,,*78
$GPRMC,062352.000,A,2602.1080,S,02801.1484,E,0.29,322.86,180915,,,A*7C
$GPGGA,062353.000,2602.1080,S,02801.1485,E,1,7,1.10,1506.4,M,22.5,M,,*78
$GPRMC,062353.000,A,2602.1080,S,02801.1485,E,0.27,322.86,180915,,,A*72
$GPGGA,062354.000,2602.1081,S,02801.1486,E,1,7,1.10,1506.4,M,22.5,M,,*7D
$GPRMC,062354.000,A,2602.1081,S,02801.1486,E,0.29,322.86,180915,,,A*79
$GPGGA,062355.000,2602.1081,S,02801.1486,E,1,7,1.10,1506.4,M,22.5,M,,*7C
$GPRMC,062355.000,A,2602.1081,S,02801.1486,E,0.22,322.86,180915,,,A*73
$GPGGA,062356.000,2602.1082,S,02801.1486,E,1,7,1.10,1506.4,M,22.5,M,,*7C
$GPRMC,062356.000,A,2602.1082,S,02801.1486,E,0.18,322.86,180915,,,A*7A
$GPGGA,062357.000,2602.1083,S,02801.1486,E,1,7,1.10,1506.4,M,22.5,M,,*7C
$GPRMC,062357.000,A,2602.1083,S,02801.1486,E,0.05,322.86,180915,,,A*76
$GPGGA,062358.000,2602.1083,S,02801.1486,E,1,7,1.10,1506.4,M,22.5,M,,*73
$GPRMC,062358.000,A,2602.1083,S,02801.1486,E,0.13,322.86,180915,,,A*7E
$GPGGA,062359.000,2602.1083,S,02801.1487,E,1,7,1.10,1506.4,M,22.5,M,,*73
$GPRMC,062359.000,A,2602.1083,S,02801.1487,E,0.11,322.86,180915,,,A*7C
$GPGGA,062400.000,2602.1083,S,02801.1487,E,1,7,1.10,1506.4,M,22.5,M,,*78
$GPRMC,062400.000,A,2602.1083,S,02801.1487,E,0.08,322.86,180915,,,A*7F
$GPGGA,062401.000,2602.1083,S,02801.1487,E,1,7,1.10,1506.4,M,22.5,M,,*79
$GPRMC,062401.000,A,2602.1083,S,02801.1487,E,0.15,322.86,180915,,,A*72
$GPGGA,062402.000,2602.1082,S,02801.1487,E,1,7,1.10,1506.4,M,22.5,M,,*7B
$GPRMC,062402.000,A,2602.1082,S,02801.1487,E,0.19,322.86,180915,,,A*7C
$GPGGA,062403.000,2602.1082,S,02801.1486,E,1,7,1.10,1506.4,M,22.5,M,,*7B
$GPRMC,062403.000,A,2602.1082,S,02801.1486,E,0.15,322.86,180915,,,A*70
$GPGGA,062404.000,2602.1083,S,02801.1486,E,1,7,1.10,1506.4,M,22.5,M,,*7D
$GPRMC,062404.000,A,2602.1083,S,02801.1486,E,0.19,322.86,180915,,,A*7A
$GPGGA,062405.000,2602.1083,S,02801.1485,E,1,7,1.10,1506.4,M,22.5,M,,*7F
$GPRMC,062405.000,A,2602.1083,S,02801.1485,E,0.12,322.86,180915,,,A*73
$GPGGA,062406.000,2602.1083,S,02801.1485,E,1,7,1.10,1506.4,M,22.5,M,,*7C
$GPRMC,062406.000,A,2602.1083,S,02801.1485,E,0.13,322.86,180915,,,A*71
$GPGGA,062407.000,2602.1082,S,02801.1485,E,1,7,1.19,1506.4,M,22.5,M,,*75
$GPRMC,062407.000,A,2602.1082,S,02801.1485,E,0.21,322.86,180915,,,A*70
$GPGGA,062408.000,2602.1082,S,02801.1485,E,1,7,1.10,1506.4,M,22.5,M,,*73
$GPRMC,062408.000,A,2602.1082,S,02801.1485,E,0.20,322.86,180915,,,A*7E
$GPGGA,062409.000,2602.1081,S,02801.1485,E,1,7,1.10,1506.4,M,22.5,M,,*71
$GPRMC,062409.000,A,2602.1081,S,02801.1485,E,0.20,322.86,180915,,,A*7C
$GPGGA,062410.000,2602.1081,S,02801.1484,E,1,7,1.10,1506.4,M,22.5,M,,*78
$GPRMC,062410.000,A,2602.1081,S,02801.1484,E,0.23,322.86,180915,,,A*76
$GPGGA,062411.000,2602.1080,S,02801.1484,E,1,7,1.10,1506.4,M,22.5,M,,*78
$GPRMC,062411.000,A,2602.1080,S,02801.1484,E,0.23,322.86,180915,,,A*76
$GPGGA,062412.000,2602.1080,S,02801.1483,E,1,7,1.19,1506.4,M,22.5,M,,*75
$GPRMC,062412.000,A,2602.1080,S,02801.1483,E,0.22,322.86,180915,,,A*73
$GPGGA,062413.000,2602.1079,S,02801.1484,E,1,7,1.10,1506.4,M,22.5,M,,*7C
